City_ID,City,Country,Date,Lat,Lng,Max Temp,Humidity,Cloudiness,Wind Speed
0,Chokurdakh,RU,2021-10-03 22:24:15,70.6333,147.9167,22.1,96,98,8.99
1,Mataura,NZ,2021-10-03 22:27:09,-46.1927,168.8643,48.47,83,100,8.55
2,Grand Gaube,MU,2021-10-03 22:27:09,-20.0064,57.6608,72.37,75,25,5.99
3,Qaanaaq,GL,2021-10-03 22:26:36,77.484,-69.3632,29.25,96,100,7.0
4,Carutapera,BR,2021-10-03 22:27:09,-1.195,-46.02,79.99,77,100,9.22
5,Kahului,US,2021-10-03 22:27:10,20.8947,-156.47,84.97,65,40,19.57
6,Kapaa,US,2021-10-03 22:22:41,22.0752,-159.319,81.19,77,90,5.99
7,Avarua,CK,2021-10-03 22:27:10,-21.2078,-159.775,77.05,65,75,9.22
8,Albany,US,2021-10-03 22:25:20,42.6001,-73.9662,63.63,93,100,2.08
9,Shu,KZ,2021-10-03 22:27:11,43.5983,73.7614,46.49,37,76,3.8
10,Bud,US,2021-10-03 22:27:11,39.447,-86.1758,75.29,88,100,8.46
11,Cabedelo,BR,2021-10-03 22:27:11,-6.9811,-34.8339,77.67,79,4,10.94
12,Hobart,AU,2021-10-03 22:25:41,-42.8794,147.3294,56.12,94,75,1.01
13,Arraial Do Cabo,BR,2021-10-03 22:27:12,-22.9661,-42.0278,72.7,91,52,12.53
14,Barrow,US,2021-10-03 22:27:12,71.2906,-156.7887,30.22,74,90,13.8
15,Punta Arenas,CL,2021-10-03 22:24:15,-53.15,-70.9167,42.91,65,0,27.63
16,Bluff,NZ,2021-10-03 22:27:12,-46.6,168.3333,48.79,81,100,24.25
17,Hilo,US,2021-10-03 22:24:03,19.7297,-155.09,82.13,72,90,6.91
18,Mount Isa,AU,2021-10-03 22:27:13,-20.7333,139.5,76.77,22,25,13.8
19,Djambala,CG,2021-10-03 22:27:13,-2.5447,14.7533,70.97,83,91,1.19
20,Svetlogorsk,BY,2021-10-03 22:27:13,52.6333,29.7333,44.38,75,78,7.31
21,Honningsvag,NO,2021-10-03 22:27:14,70.9821,25.9704,49.28,73,100,40.35
22,Butaritari,KI,2021-10-03 22:27:14,3.0707,172.7902,82.42,68,89,18.77
23,Ushuaia,AR,2021-10-03 22:26:51,-54.8,-68.3,38.86,75,75,27.63
24,Moss Vale,AU,2021-10-03 22:27:14,-34.55,150.3833,64.0,56,25,8.77
25,Katsuura,JP,2021-10-03 22:27:15,35.1333,140.3,73.11,77,4,8.61
26,Labuhan,ID,2021-10-03 22:27:15,-6.8844,112.2051,77.94,75,100,12.66
27,Saint-Francois,FR,2021-10-03 22:27:15,46.4154,3.9054,53.67,100,90,5.75
28,Chuy,UY,2021-10-03 22:27:16,-33.6971,-53.4616,52.88,66,81,11.45
29,San Vicente,AR,2021-10-03 22:27:16,-26.6167,-54.1333,64.35,100,93,0.92
30,Kulgam,IN,2021-10-03 22:27:16,33.65,75.0167,56.39,75,1,2.04
31,Pringsewu,ID,2021-10-03 22:27:17,-5.3582,104.9744,73.8,93,100,4.16
32,Longhua,CN,2021-10-03 22:27:17,23.6137,114.1919,73.96,98,3,0.6
33,Cidreira,BR,2021-10-03 22:27:17,-30.1811,-50.2056,64.06,94,100,14.61
34,Indian Head,US,2021-10-03 22:27:17,38.6001,-77.1622,82.29,79,20,0.0
35,Henties Bay,NA,2021-10-03 22:27:18,-22.116,14.2845,53.38,91,0,1.68
36,Carnarvon,AU,2021-10-03 22:27:01,-24.8667,113.6333,59.07,82,0,10.36
37,Busselton,AU,2021-10-03 22:27:18,-33.65,115.3333,54.1,67,97,6.87
38,Atuona,PF,2021-10-03 22:27:18,-9.8,-139.0333,77.81,75,14,17.49
39,San Cristobal,VE,2021-10-03 22:27:19,7.7669,-72.225,78.98,69,49,4.14
40,Kushmurun,KZ,2021-10-03 22:27:19,52.4503,64.6311,34.88,75,65,12.35
41,Itapaci,BR,2021-10-03 22:27:19,-14.9508,-49.5494,82.96,48,64,2.98
42,Cabo San Lucas,MX,2021-10-03 22:27:20,22.8909,-109.9124,88.18,65,20,10.36
43,Rikitea,PF,2021-10-03 22:26:49,-23.1203,-134.9692,73.69,63,79,15.79
44,San Patricio,US,2021-10-03 22:27:20,28.017,-97.5169,90.01,56,89,4.23
45,Khani,GE,2021-10-03 22:27:20,41.9563,42.9566,49.57,98,100,0.56
46,Dispur,IN,2021-10-03 22:27:21,26.1425,91.7889,74.44,94,94,2.35
47,Visby,SE,2021-10-03 22:27:21,57.6409,18.296,59.86,77,90,20.71
48,Lubao,PH,2021-10-03 22:27:21,14.9167,120.55,78.87,89,83,5.5
49,Khatanga,RU,2021-10-03 22:27:22,71.9667,102.5,19.26,93,99,12.68
50,Cervo,ES,2021-10-03 22:27:22,43.6702,-7.4101,57.96,79,59,11.56
51,Hermanus,ZA,2021-10-03 22:27:22,-34.4187,19.2345,53.91,71,60,9.71
52,Mar Del Plata,AR,2021-10-03 22:25:28,-38.0023,-57.5575,51.01,59,0,11.99
53,New Norfolk,AU,2021-10-03 22:27:23,-42.7826,147.0587,56.71,78,63,2.55
54,Iqaluit,CA,2021-10-03 22:27:23,63.7506,-68.5145,37.13,74,40,0.0
55,Acapulco,MX,2021-10-03 22:22:41,16.8634,-99.8901,87.62,70,1,8.05
56,Hoopstad,ZA,2021-10-03 22:27:23,-27.8327,25.9083,55.06,28,0,4.45
57,Vaini,TO,2021-10-03 22:26:31,-21.2,-175.2,77.16,88,90,9.22
58,Hirara,JP,2021-10-03 22:27:24,24.8,125.2833,82.67,78,40,14.97
59,Viedma,AR,2021-10-03 22:27:24,-40.8135,-62.9967,54.07,33,2,5.99
60,Udachnyy,RU,2021-10-03 22:24:15,66.4167,112.4,26.94,82,100,4.25
61,Izberbash,RU,2021-10-03 22:27:25,42.5696,47.8645,57.25,74,100,2.53
62,Bredasdorp,ZA,2021-10-03 22:26:27,-34.5322,20.0403,47.52,87,61,4.61
63,Nabire,ID,2021-10-03 22:27:25,-3.3667,135.4833,75.97,90,100,3.02
64,Taoudenni,ML,2021-10-03 22:27:25,22.6783,-3.9836,95.77,9,69,10.25
65,Tautira,PF,2021-10-03 22:27:25,-17.7333,-149.15,84.22,75,16,9.62
66,Jardim,BR,2021-10-03 22:27:26,-21.4803,-56.1381,78.51,73,48,7.96
67,Impfondo,CG,2021-10-03 22:27:26,1.6381,18.0667,71.24,97,98,2.1
68,Nikolskoye,RU,2021-10-03 22:27:26,59.7035,30.7861,45.88,91,0,6.96
69,Bethel,US,2021-10-03 22:26:56,41.3712,-73.414,71.82,81,90,0.0
70,Grindavik,IS,2021-10-03 22:27:27,63.8424,-22.4338,48.15,87,0,17.27
71,Kavieng,PG,2021-10-03 22:27:01,-2.5744,150.7967,82.63,71,100,5.26
72,Valley City,US,2021-10-03 22:27:27,46.9233,-98.0032,77.74,31,1,5.75
73,Balkhash,KZ,2021-10-03 22:27:27,46.844,74.9804,46.9,49,100,7.56
74,Jamestown,US,2021-10-03 22:23:54,42.097,-79.2353,68.02,97,90,3.0
75,Pandamatenga,BW,2021-10-03 22:27:28,-18.5278,25.627,73.15,48,27,1.48
76,Tuktoyaktuk,CA,2021-10-03 22:27:28,69.4541,-133.0374,35.6,93,90,14.97
77,Ilulissat,GL,2021-10-03 22:27:29,69.2167,-51.1,28.42,64,99,1.14
78,Thompson,CA,2021-10-03 22:26:35,55.7435,-97.8558,62.76,51,75,5.75
79,Paamiut,GL,2021-10-03 22:27:29,61.994,-49.6678,38.71,76,3,6.24
80,San Miguel De Cauri,PE,2021-10-03 22:27:29,-10.1,-76.5833,54.82,62,95,11.21
81,Utete,TZ,2021-10-03 22:27:30,-7.986,38.758,68.13,87,17,2.77
82,Khandyga,RU,2021-10-03 22:27:30,62.6667,135.6,25.95,92,7,2.77
83,East London,ZA,2021-10-03 22:27:30,-33.0153,27.9116,57.22,71,44,5.23
84,Dikson,RU,2021-10-03 22:27:31,73.5069,80.5464,34.86,98,100,23.98
85,Moree,AU,2021-10-03 22:23:12,-29.4667,149.85,66.22,55,2,17.27
86,Kodiak,US,2021-10-03 22:27:00,57.79,-152.4072,45.91,46,1,13.8
87,Del Rio,US,2021-10-03 22:27:31,29.3627,-100.8968,89.71,51,1,6.91
88,Puerto Ayora,EC,2021-10-03 22:27:31,-0.7393,-90.3518,75.16,79,31,11.48
89,Gat,IL,2021-10-03 22:27:32,31.61,34.7642,74.08,68,38,6.2
90,Skelleftea,SE,2021-10-03 22:27:32,64.7507,20.9528,54.0,64,90,4.0
91,Maceio,BR,2021-10-03 22:27:32,-9.6658,-35.7353,76.44,94,0,5.75
92,Leningradskiy,RU,2021-10-03 22:27:04,69.3833,178.4167,19.29,83,66,4.0
93,Harnosand,SE,2021-10-03 22:27:33,62.6323,17.9379,53.62,95,100,31.83
94,Rio Grande,BR,2021-10-03 22:27:33,-32.035,-52.0986,60.91,75,100,16.89
95,Benguela,AO,2021-10-03 22:27:33,-12.5763,13.4055,72.45,77,95,1.7
96,Ribeira Grande,PT,2021-10-03 22:27:34,38.5167,-28.7,71.83,89,24,6.46
97,Ellisras,ZA,2021-10-03 22:27:34,-23.6649,27.7443,64.2,74,0,9.75
98,Ensenada,MX,2021-10-03 22:24:40,31.8667,-116.6167,76.95,71,98,8.72
99,Saint-Philippe,RE,2021-10-03 22:27:34,-21.3585,55.7679,72.99,84,48,14.12
100,Megion,RU,2021-10-03 22:27:35,61.0296,76.1136,32.02,93,38,8.55
101,Auki,SB,2021-10-03 22:27:35,-8.7676,160.7034,81.81,78,14,2.71
102,Esperance,AU,2021-10-03 22:27:21,-33.8667,121.9,44.44,71,45,11.12
103,Pemangkat,ID,2021-10-03 22:27:35,1.1667,108.9667,78.73,83,100,7.09
104,Tual,ID,2021-10-03 22:27:36,-5.6667,132.75,80.64,67,96,8.41
105,Aksarka,RU,2021-10-03 22:27:36,66.5606,67.7975,29.07,79,93,9.98
106,Komsomolskiy,UZ,2021-10-03 22:27:19,40.4272,71.7189,56.12,54,97,2.3
107,Alice Springs,AU,2021-10-03 22:27:20,-23.7,133.8833,62.15,36,0,0.0
108,Nanortalik,GL,2021-10-03 22:27:16,60.1432,-45.2371,38.73,82,0,5.28
109,Narsaq,GL,2021-10-03 22:27:10,60.9167,-46.05,43.02,65,0,4.68
110,Yuli,NG,2021-10-03 22:27:37,9.6989,10.2744,78.17,74,0,4.85
111,Nema,RU,2021-10-03 22:27:37,57.5067,50.5011,40.17,78,100,4.83
112,Ponta Do Sol,PT,2021-10-03 22:27:37,32.6667,-17.1,75.0,78,100,5.73
113,Abha,SA,2021-10-03 22:27:38,18.2164,42.5053,62.42,72,0,0.0
114,Manavgat,TR,2021-10-03 22:27:38,36.7867,31.4431,70.21,40,0,7.74
115,Kruisfontein,ZA,2021-10-03 22:27:38,-34.0033,24.7314,50.88,79,34,5.88
116,Lastoursville,GA,2021-10-03 22:27:39,-0.8143,12.7287,71.71,98,50,1.66
117,Yellowknife,CA,2021-10-03 22:23:15,62.456,-114.3525,53.42,51,40,10.36
118,Saint George,US,2021-10-03 22:26:39,37.1041,-113.5841,91.26,13,1,1.01
119,Cayenne,GF,2021-10-03 22:27:14,4.9333,-52.3333,84.24,75,0,5.01
120,Burnie,AU,2021-10-03 22:27:39,-41.0667,145.9167,54.91,95,100,14.7
121,Cape Town,ZA,2021-10-03 22:26:45,-33.9258,18.4232,55.27,70,20,12.66
122,Grand Forks,US,2021-10-03 22:27:40,47.9417,-97.4337,76.93,29,1,4.61
123,Ozernovskiy,RU,2021-10-03 22:27:40,51.5,156.5167,47.75,85,99,27.47
124,Ferme-Neuve,CA,2021-10-03 22:27:40,46.7001,-75.4493,58.78,70,22,4.09
125,Bengkulu,ID,2021-10-03 22:27:41,-3.8004,102.2655,74.28,91,97,3.47
126,Woodstock,CA,2021-10-03 22:27:41,43.1334,-80.7497,70.81,96,100,1.01
127,Port Blair,IN,2021-10-03 22:27:35,11.6667,92.75,80.11,82,24,7.07
128,Nagato,JP,2021-10-03 22:27:41,34.3833,131.2,75.15,77,2,18.3
129,Rapid Valley,US,2021-10-03 22:27:42,44.0625,-103.1463,82.6,16,1,1.01
130,Punta Alta,AR,2021-10-03 22:27:42,-38.8759,-62.0736,55.65,47,52,6.71
131,Lavrentiya,RU,2021-10-03 22:27:42,65.5833,-171.0,27.32,67,14,1.63
132,Lompoc,US,2021-10-03 22:23:27,34.6391,-120.4579,94.78,58,1,12.66
133,Saint-Joseph,RE,2021-10-03 22:27:43,-21.3667,55.6167,71.98,81,22,10.31
134,Magalia,US,2021-10-03 22:27:43,39.8121,-121.5783,86.54,22,12,1.01
135,Fortuna,US,2021-10-03 22:27:12,40.5982,-124.1573,70.93,69,20,1.99
136,Juybar,IR,2021-10-03 22:27:43,36.6412,52.9124,59.16,72,0,2.95
137,Makokou,GA,2021-10-03 22:27:44,0.5738,12.8642,69.17,99,45,2.39
138,Navahrudak,BY,2021-10-03 22:27:44,53.6,25.8333,46.65,67,73,12.21
139,Portland,US,2021-10-03 22:27:08,45.5234,-122.6762,73.83,65,20,1.01
140,Faanui,PF,2021-10-03 22:26:46,-16.4833,-151.75,78.78,72,34,9.66
141,Kenai,US,2021-10-03 22:27:45,60.5544,-151.2583,47.03,48,1,6.91
142,Yulara,AU,2021-10-03 22:27:45,-25.2406,130.9889,58.84,33,0,4.61
143,Zamora,EC,2021-10-03 22:27:45,-4.0692,-78.9567,79.84,94,79,2.68
144,Seoul,KR,2021-10-03 22:23:03,37.5683,126.9778,73.81,68,75,6.91
145,Tezu,IN,2021-10-03 22:27:46,27.9167,96.1667,73.09,99,100,1.68
146,Isangel,VU,2021-10-03 22:27:46,-19.55,169.2667,79.75,77,2,4.94
147,Sinnamary,GF,2021-10-03 22:27:46,5.3833,-52.95,80.15,81,30,11.54
148,Lebu,CL,2021-10-03 22:27:46,-37.6167,-73.65,50.59,74,0,20.89
149,Fraserburgh,GB,2021-10-03 22:27:47,57.6874,-2.0184,50.72,72,100,18.63
150,Buraydah,SA,2021-10-03 22:27:47,26.326,43.975,79.25,13,8,7.83
151,Asosa,ET,2021-10-03 22:27:48,10.0667,34.5333,60.94,95,100,2.82
152,Gornyak,RU,2021-10-03 22:27:48,50.9942,81.4661,38.25,79,100,9.4
153,Bathsheba,BB,2021-10-03 22:27:48,13.2167,-59.5167,84.81,70,20,19.57
154,Ronne,DK,2021-10-03 22:27:48,55.1009,14.7066,60.71,82,90,16.11
155,Anadyr,RU,2021-10-03 22:27:49,64.75,177.4833,37.9,93,40,17.0
156,Katobu,ID,2021-10-03 22:27:49,-4.9408,122.5276,74.12,91,45,1.92
157,Semey,KZ,2021-10-03 22:27:49,50.4111,80.2275,42.78,49,100,7.94
158,Constitucion,CL,2021-10-03 22:27:50,-35.3333,-72.4167,56.37,67,0,18.39
159,Torbay,CA,2021-10-03 22:27:37,47.6666,-52.7314,54.75,92,90,6.91
160,Luwuk,ID,2021-10-03 22:27:51,-0.9516,122.7875,76.51,82,97,6.13
161,Georgetown,MY,2021-10-03 22:23:38,5.4112,100.3354,79.9,90,20,0.0
162,Vardo,NO,2021-10-03 22:27:51,70.3705,31.1107,48.4,78,98,27.76
163,Laguna,US,2021-10-03 22:25:43,38.421,-121.4238,93.42,21,1,1.01
164,Maniitsoq,GL,2021-10-03 22:27:52,65.4167,-52.9,38.64,68,80,2.04
165,Emba,KZ,2021-10-03 22:27:52,48.8264,58.1442,47.34,54,89,6.29
166,Saint-Nazaire,FR,2021-10-03 22:27:52,47.2833,-2.2,60.04,84,0,4.61
167,Strezhevoy,RU,2021-10-03 22:27:52,60.7333,77.5889,31.98,93,14,6.02
168,Yerbogachen,RU,2021-10-03 22:27:53,61.2767,108.0108,32.67,85,100,4.47
169,Mount Gambier,AU,2021-10-03 22:27:53,-37.8333,140.7667,48.11,87,40,14.97
170,Otane,NZ,2021-10-03 22:27:53,-39.8833,176.6333,64.0,86,100,2.84
171,Kaitangata,NZ,2021-10-03 22:27:40,-46.2817,169.8464,50.94,84,100,15.01
172,Cherskiy,RU,2021-10-03 22:27:54,68.75,161.3,17.76,97,94,2.75
173,Qostanay,KZ,2021-10-03 22:27:54,53.1667,63.5833,32.04,90,77,9.08
174,Chapais,CA,2021-10-03 22:27:54,49.7834,-74.8492,51.58,59,3,4.74
175,Pacifica,US,2021-10-03 22:27:55,37.6138,-122.4869,97.05,44,20,3.44
176,Praxedis Guerrero,MX,2021-10-03 22:27:55,31.3667,-106.0167,85.59,29,7,7.49
177,Half Moon Bay,US,2021-10-03 22:27:55,37.4636,-122.4286,97.25,29,1,9.22
178,Flinders,AU,2021-10-03 22:27:56,-34.5833,150.8552,72.05,71,52,1.01
179,Comodoro Rivadavia,AR,2021-10-03 22:27:56,-45.8667,-67.5,60.66,29,0,20.71
180,Umm Lajj,SA,2021-10-03 22:27:56,25.0213,37.2685,81.64,58,5,10.83
181,Gallipoli,TR,2021-10-03 22:27:57,40.4103,26.6708,53.46,78,11,10.83
182,Meulaboh,ID,2021-10-03 22:27:57,4.1363,96.1285,74.55,87,65,4.56
183,Samarai,PG,2021-10-03 22:27:57,-10.6167,150.6667,80.91,80,64,5.95
184,Tuburan,PH,2021-10-03 22:27:57,6.6439,122.2736,75.29,81,100,16.55
185,Mainit,PH,2021-10-03 22:27:58,9.535,125.5231,75.4,92,100,4.52
186,Petropavlovsk-Kamchatskiy,RU,2021-10-03 22:27:58,53.0452,158.6483,54.19,50,75,20.13
187,Waipawa,NZ,2021-10-03 22:27:58,-41.4122,175.5153,55.02,93,100,4.74
188,Geraldton,AU,2021-10-03 22:27:59,-28.7667,114.6,48.61,87,0,6.91
189,Novyy Karachay,RU,2021-10-03 22:27:59,43.8208,41.9032,48.06,99,100,2.51
190,Fredericksburg,US,2021-10-03 22:27:16,38.3032,-77.4605,81.57,63,1,1.99
191,Los Llanos De Aridane,ES,2021-10-03 22:27:59,28.6585,-17.9182,67.75,78,0,13.8
192,Saskylakh,RU,2021-10-03 22:28:00,71.9167,114.0833,17.04,92,99,11.77
193,Bambous Virieux,MU,2021-10-03 22:28:00,-20.3428,57.7575,72.21,83,40,11.5
194,Chihuahua,MX,2021-10-03 22:28:00,28.5,-106.0,70.63,58,100,6.46
195,Sitka,US,2021-10-03 22:28:01,57.0531,-135.33,46.29,66,75,5.75
196,Emilio Carranza,MX,2021-10-03 22:28:01,19.9711,-96.6114,82.85,72,49,11.81
197,Malartic,CA,2021-10-03 22:28:02,48.1335,-78.1328,60.91,68,45,4.36
198,Ust-Maya,RU,2021-10-03 22:28:02,60.4167,134.5333,30.11,85,100,5.82
199,Viramgam,IN,2021-10-03 22:28:02,23.1225,72.0484,80.83,75,8,7.74
200,Pevek,RU,2021-10-03 22:28:03,69.7008,170.3133,24.42,91,100,5.03
201,Bilibino,RU,2021-10-03 22:28:03,68.0546,166.4372,16.97,95,91,2.66
202,Alyangula,AU,2021-10-03 22:27:37,-13.8483,136.4192,82.27,78,46,6.91
203,Breaza,RO,2021-10-03 22:28:03,45.1833,25.6667,48.31,68,0,4.38
204,Wanaka,NZ,2021-10-03 22:28:03,-44.7,169.15,53.11,78,100,1.01
205,Clyde River,CA,2021-10-03 22:28:04,70.4692,-68.5914,35.58,85,93,1.32
206,Port Elizabeth,ZA,2021-10-03 22:23:08,-33.918,25.5701,53.1,76,4,6.58
207,Airai,TL,2021-10-03 22:28:04,-8.9266,125.4092,61.43,57,11,1.3
208,Souillac,MU,2021-10-03 22:28:04,-20.5167,57.5167,72.36,83,40,11.5
209,Khorinsk,RU,2021-10-03 22:28:05,52.1657,109.7726,32.32,92,95,5.46
210,Bombay,IN,2021-10-03 22:25:12,19.0144,72.8479,84.18,89,40,0.0
211,La Romana,DO,2021-10-03 22:28:05,18.4273,-68.9728,82.76,83,75,6.91
212,Ulaangom,MN,2021-10-03 22:28:05,49.9811,92.0667,32.43,61,66,5.23
213,Dehui,CN,2021-10-03 22:28:06,44.5333,125.7,41.31,79,42,8.66
214,Aklavik,CA,2021-10-03 22:28:06,68.2191,-135.0107,34.63,96,100,16.67
215,Pisco,PE,2021-10-03 22:27:15,-13.7,-76.2167,64.45,72,0,18.41
216,Lusaka,ZM,2021-10-03 22:23:30,-15.4067,28.2871,72.0,55,97,3.42
217,Port Alfred,ZA,2021-10-03 22:28:07,-33.5906,26.891,55.13,77,29,7.52
218,Armacao De Pera,PT,2021-10-03 22:28:07,37.1026,-8.357,64.31,57,100,13.35
219,Nyaunglebin,MM,2021-10-03 22:28:07,17.95,96.7333,73.78,95,26,2.46
220,Taywarah,AF,2021-10-03 22:28:08,33.35,64.4167,43.21,36,0,5.99
221,Singarayakonda,IN,2021-10-03 22:28:08,15.25,80.0333,82.4,78,3,1.45
222,Victoria,HK,2021-10-03 22:26:47,22.2855,114.1577,84.33,80,88,4.0
223,Akyab,MM,2021-10-03 22:28:08,20.15,92.9,79.36,84,61,4.59
224,Aksu,CN,2021-10-03 22:28:09,41.1231,80.2644,50.11,66,100,0.98
225,Calvinia,ZA,2021-10-03 22:28:09,-31.4707,19.776,46.09,38,0,3.42
226,Douglas,US,2021-10-03 22:28:09,41.3,-96.167,79.61,32,1,3.0
227,Nyurba,RU,2021-10-03 22:27:05,63.2842,118.3319,26.01,92,92,4.59
228,Nouadhibou,MR,2021-10-03 22:28:10,20.931,-17.0347,69.78,83,10,12.66
229,Neyshabur,IR,2021-10-03 22:28:10,36.2133,58.7958,54.05,35,0,2.46
230,Karratha,AU,2021-10-03 22:28:10,-20.7377,116.8463,68.41,63,0,4.52
231,Prince Rupert,CA,2021-10-03 22:27:23,54.3161,-130.3201,49.69,74,90,9.22
232,Castro,BR,2021-10-03 22:28:11,-24.7911,-50.0119,62.67,99,100,3.24
233,Merta,IN,2021-10-03 22:28:11,26.65,74.0333,79.36,71,26,7.47
234,Yar-Sale,RU,2021-10-03 22:28:12,66.8333,70.8333,31.39,75,100,6.89
235,Sao Raimundo Das Mangabeiras,BR,2021-10-03 22:28:12,-7.0219,-45.4811,84.34,46,77,5.03
236,Kitami,JP,2021-10-03 22:28:12,43.8031,143.8908,62.11,77,100,8.19
237,The Valley,AI,2021-10-03 22:28:13,18.217,-63.0578,84.34,70,20,16.11
238,Darhan,MN,2021-10-03 22:28:13,49.4867,105.9228,34.02,84,93,1.92
239,Jibuti,DJ,2021-10-03 22:28:13,11.5,42.5,81.82,58,72,2.37
240,Asau,RO,2021-10-03 22:28:14,46.4333,26.4,46.76,96,20,2.68
241,Fare,PF,2021-10-03 22:28:14,-16.7,-151.0167,78.37,71,16,9.26
242,Vieques,PR,2021-10-03 22:28:14,18.425,-65.8329,86.02,66,40,10.36
243,Empalme,MX,2021-10-03 22:28:15,27.9667,-110.8167,93.25,40,20,16.11
244,Luderitz,NA,2021-10-03 22:28:15,-26.6481,15.1594,57.56,57,89,21.27
245,Morehead,US,2021-10-03 22:28:15,37.2711,-87.1764,80.15,57,1,5.75
246,Walvis Bay,NA,2021-10-03 22:28:16,-22.9575,14.5053,50.95,87,0,11.5
247,Marawi,PH,2021-10-03 22:28:16,7.9986,124.2928,66.65,96,100,3.78
248,Palmer,US,2021-10-03 22:28:16,42.1584,-72.3287,68.92,81,90,0.0
249,Waddan,LY,2021-10-03 22:28:17,29.1614,16.139,76.96,37,4,7.7
250,Salalah,OM,2021-10-03 22:28:17,17.0151,54.0924,80.69,89,75,8.05
251,Kadaya,RU,2021-10-03 22:28:17,50.9327,119.2911,32.13,66,99,1.79
252,Deputatskiy,RU,2021-10-03 22:28:18,69.3,139.9,13.64,93,93,6.06
253,Faya,SA,2021-10-03 22:28:04,18.3851,42.4509,62.71,43,73,0.87
254,Norman Wells,CA,2021-10-03 22:26:58,65.282,-126.8329,35.64,93,90,18.41
255,Fengzhen,CN,2021-10-03 22:28:18,40.4394,113.1536,44.71,47,100,14.14
256,Kristiansund,NO,2021-10-03 22:28:19,63.1115,7.732,56.05,67,0,3.44
257,Port Hardy,CA,2021-10-03 22:28:19,50.6996,-127.4199,50.18,76,75,6.91
258,Nizwa,OM,2021-10-03 22:28:19,22.9333,57.5333,75.69,89,100,17.34
259,Kashi,CN,2021-10-03 22:28:19,39.4547,75.9797,51.01,76,75,8.95
260,Hithadhoo,MV,2021-10-03 22:28:20,-0.6,73.0833,82.96,77,77,19.06
261,Tutoia,BR,2021-10-03 22:28:20,-2.7619,-42.2744,80.2,81,43,16.28
262,Cranbrook,CA,2021-10-03 22:28:20,49.4999,-115.7688,66.04,34,40,18.41
263,Shambu,ET,2021-10-03 22:28:21,9.5667,37.1,52.0,92,85,2.37
264,Pacific Grove,US,2021-10-03 22:28:21,36.6177,-121.9166,99.57,66,1,8.01
265,Liverpool,GB,2021-10-03 22:25:19,53.4106,-2.9779,52.63,85,9,1.01
266,Montceau-Les-Mines,FR,2021-10-03 22:28:21,46.6667,4.3667,53.37,99,100,0.96
267,Ancud,CL,2021-10-03 22:28:22,-41.8697,-73.8203,49.53,75,82,8.41
268,Mehamn,NO,2021-10-03 22:28:11,71.0357,27.8492,49.15,72,100,32.17
269,Nouakchott,MR,2021-10-03 22:28:22,18.0858,-15.9785,80.53,79,2,12.91
270,Ixtapa,MX,2021-10-03 22:28:09,20.7,-105.2,87.22,74,75,11.5
271,Elban,RU,2021-10-03 22:28:22,50.1018,136.5094,38.05,77,6,3.09
272,Villa Carlos Paz,AR,2021-10-03 22:28:23,-31.4241,-64.4978,66.4,23,4,1.99
273,Lubu,CN,2021-10-03 22:28:23,23.1742,112.2809,75.2,96,30,2.21
274,Beloha,MG,2021-10-03 22:26:58,-25.1667,45.05,71.44,75,5,2.53
275,Talavera De La Reina,ES,2021-10-03 22:28:23,39.9635,-4.8308,55.78,51,8,3.0
276,Necochea,AR,2021-10-03 22:28:24,-38.5473,-58.7368,49.03,70,4,9.75
277,Coihaique,CL,2021-10-03 22:28:24,-45.5752,-72.0662,46.35,66,75,5.75
278,Todos Santos,MX,2021-10-03 22:28:24,23.45,-110.2167,87.67,75,76,7.96
279,Bayan,CN,2021-10-03 22:28:25,46.0833,127.4,44.02,78,100,9.33
280,Dingle,PH,2021-10-03 22:28:25,10.9995,122.6711,75.4,94,100,4.52
281,Dali,CN,2021-10-03 22:25:35,25.7,100.1833,60.94,95,72,3.76
282,Balkanabat,TM,2021-10-03 22:28:25,39.5108,54.3671,62.38,17,2,18.99
283,Tolland,US,2021-10-03 22:28:26,41.8501,-72.3495,68.59,90,90,1.01
284,Vryburg,ZA,2021-10-03 22:28:26,-26.9566,24.7284,55.56,27,0,3.11
285,Boulder,US,2021-10-03 22:28:26,40.0833,-105.3505,74.98,21,1,1.99
286,Bonavista,CA,2021-10-03 22:28:27,48.6499,-53.1147,55.11,88,92,11.61
287,Wawa,NG,2021-10-03 22:28:27,9.9022,4.4192,77.13,74,62,4.85
288,Alexandria,EG,2021-10-03 22:28:27,31.2156,29.9553,73.36,64,40,10.36
289,Inhambane,MZ,2021-10-03 22:28:28,-23.865,35.3833,72.03,92,100,7.67
290,Aquiraz,BR,2021-10-03 22:28:28,-3.9014,-38.3911,82.49,83,1,13.73
291,Peno,RU,2021-10-03 22:28:28,56.9262,32.7426,39.34,94,60,4.41
292,Saint Anthony,US,2021-10-03 22:27:54,45.0205,-93.218,72.9,56,1,1.99
293,Port Moresby,PG,2021-10-03 22:28:29,-9.4431,147.1797,80.02,83,40,3.44
294,Batagay-Alyta,RU,2021-10-03 22:28:28,67.8006,130.4114,15.13,93,38,0.38
295,Wyndham,US,2021-10-03 22:28:29,37.6985,-77.6125,80.46,71,1,7.0
296,Milkovo,RU,2021-10-03 22:28:29,54.7167,158.6167,44.58,86,100,12.73
297,Richards Bay,ZA,2021-10-03 22:28:30,-28.783,32.0377,58.21,84,100,5.23
298,Kutoarjo,ID,2021-10-03 22:28:30,-7.7169,109.9128,77.16,83,89,3.62
299,Mogadishu,SO,2021-10-03 22:28:30,2.0371,45.3438,78.19,84,44,15.05
300,Bandarbeyla,SO,2021-10-03 22:28:31,9.4942,50.8122,78.78,81,75,22.01
301,Vostok,RU,2021-10-03 22:28:31,46.4856,135.8833,43.11,96,100,3.56
302,La Rioja,ES,2021-10-03 22:28:31,42.25,-2.5,46.49,87,30,4.41
303,Dubbo,AU,2021-10-03 22:28:32,-32.25,148.6167,60.93,72,90,14.97
304,Raha,IN,2021-10-03 22:28:32,26.2333,92.5167,73.98,95,99,3.71
305,Hobyo,SO,2021-10-03 22:28:15,5.3505,48.5268,78.28,88,43,18.07
306,Hinton,CA,2021-10-03 22:28:32,53.4001,-117.5857,55.44,32,68,6.85
307,Shenjiamen,CN,2021-10-03 22:28:33,29.9576,122.298,77.38,89,2,13.13
308,Batagay,RU,2021-10-03 22:28:33,67.6333,134.6333,21.29,96,78,2.19
309,Wittmund,DE,2021-10-03 22:28:33,53.5667,7.7833,53.04,94,100,15.46
310,Saldanha,ZA,2021-10-03 22:27:11,-33.0117,17.9442,50.05,74,0,24.63
311,Marang,MY,2021-10-03 22:28:34,5.2056,103.2059,76.91,84,96,3.09
312,Sardarshahr,IN,2021-10-03 22:28:34,28.4333,74.4833,85.03,55,4,9.55
313,Havre-Saint-Pierre,CA,2021-10-03 22:28:34,50.2334,-63.5986,50.0,76,75,4.61
314,Bulungu,CD,2021-10-03 22:28:34,-4.55,18.6,69.84,95,99,0.67
315,Juazeiro,BR,2021-10-03 22:28:35,-9.4117,-40.4986,84.38,32,0,5.75
316,Codrington,AU,2021-10-03 22:27:25,-38.2667,141.9667,50.45,84,58,19.55
317,Gurupi,BR,2021-10-03 22:24:22,-11.7292,-49.0686,85.6,48,89,6.51
318,Taonan,CN,2021-10-03 22:28:35,45.3333,122.7833,45.28,75,72,6.38
319,Machali,CL,2021-10-03 22:28:36,-34.1833,-70.6667,60.08,41,0,12.66
320,Binay,PH,2021-10-03 22:28:36,13.5028,122.5975,79.18,86,100,9.53
321,Mahebourg,MU,2021-10-03 22:28:36,-20.4081,57.7,72.25,83,40,11.5
322,Fairbanks,US,2021-10-03 22:25:32,64.8378,-147.7164,36.61,95,90,8.05
323,College,US,2021-10-03 22:28:37,64.8569,-147.8028,36.59,95,75,3.44
324,Quang Ngai,VN,2021-10-03 22:23:46,15.1167,108.8,74.88,90,100,5.08
325,Klaksvik,FO,2021-10-03 22:28:37,62.2266,-6.589,49.12,88,100,26.96
326,Hennebont,FR,2021-10-03 22:28:37,47.8051,-3.2734,60.91,78,75,11.5
327,Lubango,AO,2021-10-03 22:28:38,-14.9172,13.4925,60.96,40,26,3.94
328,Chulman,RU,2021-10-03 22:28:38,56.8479,124.9104,19.63,99,71,2.44
329,Miyako,JP,2021-10-03 22:28:38,39.6367,141.9525,64.58,73,1,7.31
330,Umm Kaddadah,SD,2021-10-03 22:28:39,13.6017,26.6876,89.53,19,100,12.21
331,Payyannur,IN,2021-10-03 22:28:39,12.1,75.2,77.49,91,100,2.35
332,Hasaki,JP,2021-10-03 22:28:08,35.7333,140.8333,70.2,80,0,10.02
333,Tasiilaq,GL,2021-10-03 22:28:39,65.6145,-37.6368,35.76,54,0,5.7
334,Dalbandin,PK,2021-10-03 22:28:40,28.8947,64.4101,69.73,19,60,3.02
335,Atherton,GB,2021-10-03 22:28:40,53.5237,-2.4935,53.15,90,8,1.01
336,Alofi,NU,2021-10-03 22:28:40,-19.0595,-169.9187,78.69,83,74,20.71
337,Andros Town,BS,2021-10-03 22:28:41,24.7,-77.7667,84.16,68,13,12.75
338,Saquarema,BR,2021-10-03 22:28:41,-22.92,-42.5103,73.42,98,58,8.08
339,Remedios,CU,2021-10-03 22:28:41,22.4947,-79.5458,85.12,75,32,12.35
340,Sao Filipe,CV,2021-10-03 22:28:41,14.8961,-24.4956,80.71,77,80,4.9
341,Arenapolis,BR,2021-10-03 22:28:42,-14.4503,-56.8461,80.87,58,55,5.99
342,Yining,CN,2021-10-03 22:28:42,29.0361,114.5636,74.3,78,0,2.17
343,Kamenka,RU,2021-10-03 22:28:42,51.3223,42.7678,42.44,77,1,6.53
344,Victor Harbor,AU,2021-10-03 22:28:43,-35.5667,138.6167,55.8,67,46,23.8
345,Dolores,AR,2021-10-03 22:24:17,-36.3132,-57.6792,48.9,68,7,6.87
346,Vanimo,PG,2021-10-03 22:28:43,-2.6741,141.3028,79.48,79,81,2.86
347,Barcelos,PT,2021-10-03 22:27:29,41.5388,-8.6151,58.84,75,55,2.39
348,Adre,TD,2021-10-03 22:28:44,13.4667,22.2,79.34,37,43,6.13
349,Tiksi,RU,2021-10-03 22:28:44,71.6872,128.8694,24.3,88,98,14.43
350,General Cepeda,MX,2021-10-03 22:28:44,25.3833,-101.45,74.61,63,96,7.02
351,Roebourne,AU,2021-10-03 22:28:44,-20.7833,117.1333,67.93,63,0,3.06
352,Poya,NC,2021-10-03 22:28:45,-21.35,165.15,80.4,67,2,7.25
353,Baykit,RU,2021-10-03 22:28:45,61.67,96.37,34.16,94,98,1.21
354,Karasjok,NO,2021-10-03 22:28:45,69.4719,25.5112,50.11,83,100,17.85
355,Nemuro,JP,2021-10-03 22:28:46,43.3236,145.575,62.22,84,96,30.76
356,Coquimbo,CL,2021-10-03 22:28:46,-29.9533,-71.3436,58.73,67,0,12.66
357,Dunedin,NZ,2021-10-03 22:25:45,-45.8742,170.5036,46.69,91,100,14.07
358,Lixourion,GR,2021-10-03 22:28:46,38.2019,20.4314,68.56,61,100,0.07
359,Boyuibe,BO,2021-10-03 22:28:47,-20.4167,-63.2833,73.31,86,89,10.11
360,Shirokiy,RU,2021-10-03 22:28:47,49.758,129.523,32.18,82,4,7.29
361,Okato,NZ,2021-10-03 22:28:47,-39.2,173.8833,61.43,92,89,8.52
362,Iralaya,HN,2021-10-03 22:28:48,15.0,-83.2333,86.09,80,19,6.93
363,Tahta,EG,2021-10-03 22:28:48,26.7693,31.5021,77.32,42,0,11.7
364,Bellary,IN,2021-10-03 22:28:48,15.15,76.9333,79.0,72,20,4.99
365,Lukovetskiy,RU,2021-10-03 22:28:49,64.2956,41.9211,44.58,96,95,4.41
366,Sorland,NO,2021-10-03 22:27:48,67.667,12.6934,51.82,84,100,23.22
367,Newport,GB,2021-10-03 22:28:49,51.5877,-2.9984,54.77,89,7,13.27
368,Vila Franca Do Campo,PT,2021-10-03 22:27:50,37.7167,-25.4333,73.2,87,96,4.7
369,Sortland,NO,2021-10-03 22:28:49,68.6949,15.4162,59.18,83,100,5.86
370,Longyearbyen,SJ,2021-10-03 22:28:50,78.2186,15.6401,37.24,93,75,3.44
371,Muroto,JP,2021-10-03 22:28:50,33.2833,134.15,66.24,74,3,5.91
372,Dzilam Gonzalez,MX,2021-10-03 22:27:04,21.2833,-88.9333,84.0,69,69,9.37
373,Bonthe,SL,2021-10-03 22:28:50,7.5264,-12.505,78.67,86,100,3.96
374,Abu Dhabi,AE,2021-10-03 22:24:49,24.4667,54.3667,86.11,62,0,6.91
375,Kheda,IN,2021-10-03 22:28:51,22.75,72.6833,80.89,76,18,4.7
376,Emporia,US,2021-10-03 22:25:49,38.4039,-96.1817,80.8,32,1,9.22
377,Rawlins,US,2021-10-03 22:27:54,41.7911,-107.2387,69.69,16,1,12.66
378,Fort Nelson,CA,2021-10-03 22:28:51,58.8053,-122.7002,51.39,20,40,19.57
379,Puerto Quijarro,BO,2021-10-03 22:28:52,-17.7833,-57.7667,91.71,36,88,3.67
380,Anloga,GH,2021-10-03 22:28:52,5.7947,0.8973,80.82,84,19,11.21
381,Touros,BR,2021-10-03 22:27:20,-5.1989,-35.4608,79.7,74,6,14.83
382,Ballina,AU,2021-10-03 22:28:35,-28.8667,153.5667,77.77,73,27,2.3
383,Kangaatsiaq,GL,2021-10-03 22:28:52,68.3065,-53.4641,32.13,64,100,5.55
384,Navirai,BR,2021-10-03 22:28:53,-23.065,-54.1906,72.03,95,100,5.91
385,Pangody,RU,2021-10-03 22:28:53,65.85,74.4859,31.57,82,100,6.44
386,Krasnoarmeyskiy,RU,2021-10-03 22:28:53,47.0114,42.2072,48.54,43,83,11.77
387,Tuatapere,NZ,2021-10-03 22:28:15,-46.1333,167.6833,48.81,90,100,3.42
388,Te Anau,NZ,2021-10-03 22:28:54,-45.4167,167.7167,46.76,97,100,2.04
389,Kyren,RU,2021-10-03 22:28:54,51.6828,102.1408,27.45,86,50,2.48
390,Jalu,LY,2021-10-03 22:28:54,29.0331,21.5482,73.08,43,0,6.02
391,Aasiaat,GL,2021-10-03 22:28:55,68.7098,-52.8699,25.23,73,100,4.27
392,Hami,CN,2021-10-03 22:28:55,42.8,93.45,45.88,34,0,2.59
393,Sao Joao Da Barra,BR,2021-10-03 22:28:55,-21.6403,-41.0511,75.07,83,5,23.94
394,Dwarka,IN,2021-10-03 22:28:55,22.2394,68.9678,81.84,83,13,9.95
395,Mae Hong Son,TH,2021-10-03 22:28:56,19.3003,97.9685,71.71,99,18,0.85
396,Sorong,ID,2021-10-03 22:28:56,-0.8833,131.25,77.52,87,100,10.4
397,Lima,PE,2021-10-03 22:25:31,-12.0432,-77.0282,60.39,75,90,11.5
398,Aripuana,BR,2021-10-03 22:28:57,-9.1667,-60.6333,83.89,59,74,1.54
399,Calatayud,ES,2021-10-03 22:28:57,41.3535,-1.6432,61.38,65,100,4.25
400,Dalby,AU,2021-10-03 22:28:57,-27.1833,151.2667,81.3,45,0,22.41
401,Odienne,CI,2021-10-03 22:28:57,9.51,-7.5692,75.27,80,50,1.39
402,San Juan,AR,2021-10-03 22:28:58,-31.5375,-68.5364,66.72,13,0,10.56
403,Arequipa,PE,2021-10-03 22:28:58,-16.3989,-71.535,64.47,25,0,10.36
404,Coolum Beach,AU,2021-10-03 22:28:58,-26.5333,153.1,78.12,76,25,11.45
405,Lobito,AO,2021-10-03 22:26:05,-12.3481,13.5456,71.83,81,98,3.44
406,Ciudad Guayana,VE,2021-10-03 22:28:59,8.3533,-62.6528,82.53,73,80,6.4
407,Sioux Lookout,CA,2021-10-03 22:28:59,50.1001,-91.917,62.98,67,75,3.44
408,Russkaya Polyana,UA,2021-10-03 22:28:59,49.417,31.9201,49.1,67,59,7.11
409,Olot,ES,2021-10-03 22:29:00,42.181,2.4901,64.69,88,100,2.73
410,Madison Heights,US,2021-10-03 22:25:05,42.4859,-83.1052,75.94,82,75,3.44
411,Athens,GR,2021-10-03 22:27:28,37.9795,23.7162,66.16,56,44,1.99
412,Bhabua,IN,2021-10-03 22:29:00,25.05,83.6167,75.4,90,81,1.52
413,Kunashak,RU,2021-10-03 22:29:00,55.7032,61.5498,32.52,52,100,7.72
414,Rumoi,JP,2021-10-03 22:29:01,43.9344,141.6428,65.17,93,100,18.75
415,Gorontalo,ID,2021-10-03 22:29:01,0.5412,123.0595,75.81,93,100,3.31
416,Makat,KZ,2021-10-03 22:29:01,47.6469,53.3463,50.72,54,100,7.11
417,Goure,NE,2021-10-03 22:29:02,13.9835,10.2704,87.03,20,2,4.32
418,Marzuq,YE,2021-10-03 22:29:02,14.4,46.4667,76.44,58,95,8.93
419,Road Town,VG,2021-10-03 22:25:12,18.4167,-64.6167,84.29,74,40,9.22
420,Mazagao,BR,2021-10-03 22:29:02,-0.115,-51.2894,87.85,67,98,7.99
421,Tatarsk,RU,2021-10-03 22:29:03,55.219,75.9828,32.04,91,100,5.99
422,Keti Bandar,PK,2021-10-03 22:29:03,24.1447,67.4497,81.88,85,8,16.73
423,Nosy Varika,MG,2021-10-03 22:29:03,-20.5833,48.5333,70.45,85,22,8.05
424,Shingu,JP,2021-10-03 22:29:04,33.7333,135.9833,73.96,84,64,4.27
425,Iskateley,RU,2021-10-03 22:28:54,67.6803,53.1512,39.2,92,89,10.6
426,Rajsamand,IN,2021-10-03 22:29:04,25.0667,73.8833,75.15,84,3,4.27
427,Warwick,US,2021-10-03 22:27:18,41.7001,-71.4162,69.84,86,75,5.75
428,Lorengau,PG,2021-10-03 22:27:43,-2.0226,147.2712,82.18,75,93,5.26
429,Vzmorye,RU,2021-10-03 22:29:04,54.6961,20.2361,51.89,74,76,13.94
430,De Aar,ZA,2021-10-03 22:29:05,-30.6497,24.0123,46.22,29,0,8.7
431,San Quintin,MX,2021-10-03 22:29:05,30.4833,-115.95,78.58,46,100,11.25
432,Manuk Mangkaw,PH,2021-10-03 22:29:06,4.8,119.85,82.78,74,100,4.14
433,Dakar,SN,2021-10-03 22:26:45,14.6937,-17.4441,79.68,75,17,6.13
434,Hovd,MN,2021-10-03 22:29:06,48.0056,91.6419,30.85,37,8,4.7
435,Moron,AR,2021-10-03 22:29:06,-34.6534,-58.6198,58.98,41,37,1.99
436,Yazd,IR,2021-10-03 22:29:07,31.8972,54.3675,68.11,28,0,6.91
437,Lae,PG,2021-10-03 22:29:07,-6.7221,146.9847,78.49,87,72,2.15
438,Sembakung,ID,2021-10-03 22:29:07,3.8167,117.25,73.6,98,100,2.1
439,Pila,PL,2021-10-03 22:29:08,53.1515,16.7378,57.69,66,100,7.07
440,Itacoatiara,BR,2021-10-03 22:29:08,-3.1431,-58.4442,81.64,69,93,1.07
441,Kawalu,ID,2021-10-03 22:29:08,-7.3817,108.2082,70.88,93,85,1.45
442,Sarahan,IN,2021-10-03 22:29:09,31.5167,77.8,55.45,86,4,2.04
443,Shujalpur,IN,2021-10-03 22:29:09,23.4,76.7167,74.91,92,27,4.36
444,George Town,MY,2021-10-03 22:29:09,5.4112,100.3354,79.9,90,20,0.0
445,Talnakh,RU,2021-10-03 22:29:10,69.4865,88.3972,17.33,97,97,0.58
446,Kendallville,US,2021-10-03 22:29:10,41.4414,-85.265,67.89,100,90,0.0
447,Pimentel,PE,2021-10-03 22:29:10,-6.8367,-79.9342,66.49,68,20,23.02
448,Sidrolandia,BR,2021-10-03 22:29:11,-20.9319,-54.9614,90.39,43,52,8.1
449,Halifax,CA,2021-10-03 22:26:42,44.6453,-63.5724,55.99,82,100,6.91
450,Tiznit,MA,2021-10-03 22:29:11,29.5833,-9.5,62.29,82,91,4.36
451,Kayerkan,RU,2021-10-03 22:29:11,69.3497,87.7602,18.88,95,98,3.74
452,Mercedes,AR,2021-10-03 22:29:12,-34.6515,-59.4307,57.83,61,18,4.72
453,Northview,US,2021-10-03 22:24:37,43.0456,-85.6006,71.44,85,90,1.01
454,Satipo,PE,2021-10-03 22:29:12,-11.2522,-74.6386,81.28,65,82,0.54
455,Charters Towers,AU,2021-10-03 22:29:12,-20.1,146.2667,77.14,63,4,11.5
456,Belmonte,BR,2021-10-03 22:29:13,-15.8631,-38.8828,77.5,79,6,13.51
457,Tabriz,IR,2021-10-03 22:29:13,38.08,46.2919,63.86,39,20,2.3
458,Kirovskiy,RU,2021-10-03 22:29:13,45.0917,133.5136,48.7,94,96,4.63
459,Port Macquarie,AU,2021-10-03 22:25:09,-31.4333,152.9167,67.89,49,82,7.31
460,Camacha,PT,2021-10-03 22:29:14,33.0833,-16.3333,71.53,88,40,11.5
461,San Borja,BO,2021-10-03 22:29:14,-14.8167,-66.85,96.46,33,67,6.44
462,Oga,IT,2021-10-03 22:29:14,46.4631,10.347,50.68,95,99,6.29
463,Port Lincoln,AU,2021-10-03 22:29:15,-34.7333,135.8667,53.87,63,43,28.27
464,Lagoa,PT,2021-10-03 22:29:15,39.05,-27.9833,70.66,93,29,11.68
465,Amuntai,ID,2021-10-03 22:29:15,-2.4177,115.2494,73.72,98,100,3.29
466,Uvat,RU,2021-10-03 22:29:16,59.1433,68.8953,31.12,81,100,8.12
467,Durres,AL,2021-10-03 22:29:16,41.3231,19.4414,57.38,69,32,3.49
468,Nybro,SE,2021-10-03 22:29:17,56.7446,15.9071,60.42,66,100,11.39
469,Madang,PG,2021-10-03 22:29:17,-5.2246,145.7966,79.36,85,76,2.08
470,Shar,KZ,2021-10-03 22:29:17,49.5886,81.0453,42.64,52,100,11.59
471,Sakakah,SA,2021-10-03 22:29:18,29.9697,40.2064,80.17,28,0,10.02
472,Sao Miguel Do Araguaia,BR,2021-10-03 22:29:18,-13.275,-50.1628,87.66,40,87,4.72
473,Diamantina,BR,2021-10-03 22:29:18,-18.2494,-43.6003,75.04,44,90,5.5
474,Dharmapuri,IN,2021-10-03 22:29:19,12.1333,78.1667,73.11,94,32,3.04
475,Marienburg,PL,2021-10-03 22:29:19,54.0359,19.0266,57.88,70,75,13.04
476,Ndele,CF,2021-10-03 22:29:19,8.4109,20.6473,70.61,87,32,1.1
477,Saint-Augustin,CA,2021-10-03 22:28:19,51.226,-58.6502,42.06,92,100,7.38
478,Oum Hadjer,TD,2021-10-03 22:29:19,13.2954,19.6966,87.87,39,16,5.75
479,Kathmandu,NP,2021-10-03 22:29:20,27.7167,85.3167,68.22,94,75,0.0
480,Zonguldak,TR,2021-10-03 22:29:20,41.25,31.8333,47.16,94,3,3.09
481,Hearst,CA,2021-10-03 22:29:21,49.6835,-83.6665,59.25,76,78,4.34
482,Mitsamiouli,KM,2021-10-03 22:29:21,-11.3847,43.2844,75.36,78,10,9.57
483,Upernavik,GL,2021-10-03 22:26:41,72.7868,-56.1549,30.56,88,99,4.68
484,Lillooet,CA,2021-10-03 22:29:21,50.6856,-121.942,66.92,47,29,6.15
485,Neiafu,TO,2021-10-03 22:29:22,-18.65,-173.9833,77.68,94,75,10.36
486,Varena,LT,2021-10-03 22:29:22,54.2167,24.5667,50.65,74,100,10.54
487,Ukiah,US,2021-10-03 22:29:22,39.1502,-123.2078,97.12,16,1,6.91
488,Maridi,SS,2021-10-03 22:29:22,4.9158,29.4742,66.4,96,60,2.8
489,Las Vegas,US,2021-10-03 22:25:02,36.175,-115.1372,92.43,15,1,5.75
490,Aborlan,PH,2021-10-03 22:29:23,9.4352,118.5492,78.03,89,98,3.24
491,Carauari,BR,2021-10-03 22:29:23,-4.8828,-66.8958,83.88,68,97,2.46
492,Turukhansk,RU,2021-10-03 22:29:23,65.8167,87.9833,28.67,97,96,3.94
493,Gornopravdinsk,RU,2021-10-03 22:29:24,60.05,69.9,29.19,93,98,6.4
494,Hualmay,PE,2021-10-03 22:29:24,-11.0964,-77.6139,64.98,76,50,9.71
495,La Palma,US,2021-10-03 22:29:24,33.8464,-118.0467,101.71,28,1,5.99
496,Luba,GQ,2021-10-03 22:29:25,3.4568,8.5547,76.89,86,57,4.9
497,Lichinga,MZ,2021-10-03 22:29:25,-13.3128,35.2406,68.38,50,0,5.91
498,Safaga,EG,2021-10-03 22:27:40,26.7292,33.9365,78.75,52,0,13.78
499,Mamallapuram,IN,2021-10-03 22:29:25,12.6264,80.1722,80.65,83,26,4.81
500,Aykhal,RU,2021-10-03 22:29:26,66.0,111.5,25.9,86,100,4.32
501,Sijunjung,ID,2021-10-03 22:29:26,-0.6876,100.9537,71.33,97,98,2.21
502,Puerto Escondido,MX,2021-10-03 22:27:55,15.85,-97.0667,88.63,55,75,5.75
503,Severo-Kurilsk,RU,2021-10-03 22:28:22,50.6789,156.125,47.73,77,78,32.19
504,Dyurtyuli,RU,2021-10-03 22:29:26,55.4911,54.8688,36.14,72,92,7.0
505,Zakamensk,RU,2021-10-03 22:29:27,50.3741,103.2863,27.32,92,67,0.69
506,Husavik,IS,2021-10-03 22:29:27,66.0449,-17.3389,42.71,98,100,21.79
507,Birao,CF,2021-10-03 22:29:27,10.2849,22.7882,73.78,84,95,4.9
508,Brattvag,NO,2021-10-03 22:29:28,62.6002,6.4434,59.43,41,20,11.5
509,Sayyan,YE,2021-10-03 22:29:28,15.1718,44.3244,60.4,55,93,0.65
510,Broken Hill,AU,2021-10-03 22:29:28,-31.95,141.4333,58.71,47,0,20.71
511,Paidha,UG,2021-10-03 22:29:29,2.4167,30.9855,60.69,91,100,4.92
512,Cotonou,BJ,2021-10-03 22:29:29,6.3654,2.4183,79.61,85,26,7.4
513,Kalamnuri,IN,2021-10-03 22:29:29,19.6667,77.3333,75.65,82,64,1.23
514,Celina,US,2021-10-03 22:29:30,40.5489,-84.5702,74.7,82,100,9.55
515,Male,MV,2021-10-03 22:29:30,4.1748,73.5089,82.35,83,40,18.41
516,Bismarck,US,2021-10-03 22:29:30,46.8083,-100.7837,85.84,24,1,10.36
517,Bubaque,GW,2021-10-03 22:27:31,11.2833,-15.8333,82.27,72,88,2.04
518,Sambava,MG,2021-10-03 22:29:31,-14.2667,50.1667,69.48,92,37,8.37
519,Leh,IN,2021-10-03 22:29:31,34.1667,77.5833,48.11,55,26,6.58
520,Naryan-Mar,RU,2021-10-03 22:29:31,67.6713,53.087,39.38,92,90,10.54
521,Ostrovnoy,RU,2021-10-03 22:29:31,68.0531,39.5131,44.29,85,18,21.61
522,Point Fortin,TT,2021-10-03 22:29:32,10.1833,-61.6833,79.14,81,58,16.11
523,Iquique,CL,2021-10-03 22:29:32,-20.2208,-70.1431,60.84,75,16,6.78
524,Bundaberg,AU,2021-10-03 22:29:32,-24.85,152.35,79.21,75,40,7.0
525,Natal,BR,2021-10-03 22:29:33,-5.795,-35.2094,79.45,78,0,8.05
526,Muros,ES,2021-10-03 22:24:45,42.7762,-9.0603,58.23,94,78,3.98
527,Tilichiki,RU,2021-10-03 22:29:33,60.4667,166.1,37.89,94,100,23.13
528,Mandeville,JM,2021-10-03 22:29:34,18.0417,-77.5071,73.45,78,53,6.15
529,Miri,MY,2021-10-03 22:29:34,4.4148,114.0089,73.54,100,40,3.44
530,Gunjur,GM,2021-10-03 22:29:25,13.2019,-16.7339,80.67,94,40,0.0
531,Itaituba,BR,2021-10-03 22:29:34,-4.2761,-55.9836,83.55,64,100,3.27
532,Naliya,IN,2021-10-03 22:29:35,23.2667,68.8333,81.39,81,3,10.87
533,Kavaratti,IN,2021-10-03 22:27:03,10.5669,72.642,81.41,79,100,10.87
534,Mandalgovi,MN,2021-10-03 22:29:35,45.7625,106.2708,32.59,53,9,2.35
535,Contamana,PE,2021-10-03 22:29:35,-7.3333,-75.0167,90.1,48,88,4.09
536,Sola,VU,2021-10-03 22:29:36,-13.8833,167.55,83.07,84,20,5.75
537,Zhezkazgan,KZ,2021-10-03 22:29:36,47.8043,67.7144,42.39,81,98,9.42
538,Naze,JP,2021-10-03 22:28:23,28.3667,129.4833,77.92,64,1,18.63
539,Awbari,LY,2021-10-03 22:29:36,26.5921,12.7805,78.1,29,5,9.48
540,Brewster,US,2021-10-03 22:29:37,41.3973,-73.6171,72.99,82,90,0.0
541,Belaya Gora,RU,2021-10-03 22:29:37,68.5333,146.4167,23.9,94,97,5.1
542,Scottsbluff,US,2021-10-03 22:29:37,41.8666,-103.6672,82.63,15,1,5.01
543,Zhaozhou,CN,2021-10-03 22:29:37,45.6833,125.3167,44.4,74,99,10.42
544,Entre Rios,BR,2021-10-03 22:29:38,-11.9419,-38.0844,71.67,83,3,5.93
545,Marandahalli,IN,2021-10-03 22:29:38,12.4,78.0,72.21,92,29,2.91
546,Poptun,GT,2021-10-03 22:29:38,16.3311,-89.4169,73.72,84,97,3.4
547,Sur,OM,2021-10-03 22:29:39,22.5667,59.5289,82.53,78,99,15.3
548,Hastings,GB,2021-10-03 22:29:39,50.8552,0.5729,58.8,90,0,18.41
549,Sergach,RU,2021-10-03 22:29:39,55.5308,45.4661,44.89,91,100,4.63
550,Vitim,RU,2021-10-03 22:29:40,59.4511,112.5578,31.21,98,100,3.4
551,Brae,GB,2021-10-03 22:29:40,60.3964,-1.353,51.71,82,100,34.92
552,Diamantino,BR,2021-10-03 22:26:24,-14.4086,-56.4461,80.01,63,55,1.05
553,Nokaneng,BW,2021-10-03 22:29:40,-19.6667,22.2667,67.1,16,72,7.83
554,Phalaborwa,ZA,2021-10-03 22:29:41,-23.943,31.1411,61.88,74,100,12.5
555,Sibu,MY,2021-10-03 22:29:41,2.3,111.8167,75.51,100,40,1.14
556,Eureka,US,2021-10-03 22:29:41,40.8021,-124.1637,71.2,71,19,5.01
557,Thakurgaon,BD,2021-10-03 22:29:42,26.0333,88.4667,75.36,93,96,5.01
558,Mendi,PG,2021-10-03 22:29:42,-6.1761,143.6513,59.47,87,30,0.63
559,Hamilton,US,2021-10-03 22:27:41,39.1834,-84.5333,71.76,86,20,1.01
560,Parintins,BR,2021-10-03 22:29:42,-2.6283,-56.7358,84.34,63,83,0.38
561,Nowy Dwor Gdanski,PL,2021-10-03 22:29:43,54.2131,19.1177,57.99,71,62,12.93
562,Beyneu,KZ,2021-10-03 22:29:43,45.3167,55.2,51.85,34,93,7.49
563,Green River,US,2021-10-03 22:27:51,41.5286,-109.4662,72.19,22,0,5.01
564,Rio Gallegos,AR,2021-10-03 22:29:43,-51.6226,-69.2181,50.05,32,40,39.12
565,Provideniya,RU,2021-10-03 22:29:44,64.3833,-173.3,33.91,69,75,4.47
566,West Odessa,US,2021-10-03 22:29:44,31.8424,-102.4988,85.41,31,1,3.44
567,Solnechnyy,RU,2021-10-03 22:29:44,50.7214,136.6319,36.3,63,2,4.14
568,Plettenberg Bay,ZA,2021-10-03 22:28:48,-34.0527,23.3716,50.86,84,26,7.25
569,Tabuk,PH,2021-10-03 22:29:45,17.4189,121.4443,73.44,94,56,2.08
570,Novoagansk,RU,2021-10-03 22:29:45,61.9449,76.6625,28.04,93,35,7.7
571,El Rosario,MX,2021-10-03 22:29:45,24.2556,-107.1828,95.2,51,49,9.55
572,Upington,ZA,2021-10-03 22:29:46,-28.4478,21.2561,52.18,28,0,1.14
573,Byron Bay,AU,2021-10-03 22:28:39,-28.65,153.6167,77.7,49,29,11.43
574,Qui Nhon,VN,2021-10-03 22:29:46,13.7667,109.2333,76.3,89,100,6.76
575,Buliwao,PH,2021-10-03 22:29:46,16.4833,121.2333,71.11,98,90,0.47
576,Peniche,PT,2021-10-03 22:29:47,39.3558,-9.3811,60.62,89,98,9.89
577,Scarborough,GB,2021-10-03 22:28:49,54.2797,-0.4044,53.51,85,19,4.0
578,Sechura,PE,2021-10-03 22:29:47,-5.5569,-80.8222,72.3,61,19,20.11
579,Rampura,IN,2021-10-03 22:29:47,30.25,75.2333,78.87,68,21,3.98
580,Padang,ID,2021-10-03 22:25:06,-0.9492,100.3543,73.45,87,94,2.86
581,Ternate,ID,2021-10-03 22:29:48,0.8,127.4,80.69,80,99,6.26
582,Kailua,US,2021-10-03 22:29:48,21.4022,-157.7394,87.78,66,40,10.36
583,Ahipara,NZ,2021-10-03 22:28:57,-35.1667,173.1667,60.84,97,90,8.48
584,Zabid,YE,2021-10-03 22:29:48,14.1951,43.3152,88.92,50,95,3.62
585,Hokitika,NZ,2021-10-03 22:29:49,-42.7167,170.9667,50.34,90,100,7.65
586,Palombara Sabina,IT,2021-10-03 22:29:49,42.0667,12.768,67.35,81,4,4.14
587,Haines Junction,CA,2021-10-03 22:29:49,60.7522,-137.5108,37.35,60,100,10.36
588,Talakan,RU,2021-10-03 22:29:50,50.3167,130.3667,32.76,86,3,3.65
589,Makueni,KE,2021-10-03 22:29:50,-1.8041,37.6203,63.75,83,100,3.87
590,Pangai,TO,2021-10-03 22:29:50,-19.8,-174.35,78.91,69,75,24.16
591,North Bend,US,2021-10-03 22:29:51,43.4065,-124.2243,73.92,77,1,20.71
592,Ribeira Brava,PT,2021-10-03 22:29:51,32.65,-17.0667,75.0,80,100,5.44
593,Praia,CV,2021-10-03 22:29:51,14.9215,-23.5087,81.14,78,20,13.8
594,Ayan,RU,2021-10-03 22:29:52,56.45,138.1667,39.04,58,67,16.37
595,Lazaro Cardenas,MX,2021-10-03 22:29:52,17.9583,-102.2,84.36,69,32,7.9
596,Bad Wurzach,DE,2021-10-03 22:29:52,47.9,9.9,60.76,91,84,2.64
597,Matamoros,MX,2021-10-03 22:29:52,25.5333,-103.25,78.91,53,90,9.22
598,Nipawin,CA,2021-10-03 22:26:33,53.3668,-104.0009,69.84,28,1,6.91
599,Kununurra,AU,2021-10-03 22:29:53,-15.7667,128.7333,75.18,88,60,0.0
600,Adrar,MR,2021-10-03 22:29:53,20.5022,-10.0711,93.31,11,8,4.32
601,Luganville,VU,2021-10-03 22:26:53,-15.5333,167.1667,81.55,77,11,6.51
602,San Luis,AR,2021-10-03 22:29:54,-33.295,-66.3356,61.03,20,1,9.24
603,La Ronge,CA,2021-10-03 22:27:43,55.1001,-105.2842,64.65,25,40,2.3
604,Virden,US,2021-10-03 22:29:54,39.5009,-89.7679,73.11,80,73,10.36
605,Mozarlandia,BR,2021-10-03 22:24:56,-14.7447,-50.5706,87.39,43,100,1.68
606,Burgos,ES,2021-10-03 22:29:54,42.3394,-3.7079,43.16,87,0,5.75
607,Miedzyrzec Podlaski,PL,2021-10-03 22:29:55,51.9864,22.7825,51.6,62,52,11.86
608,Paita,PE,2021-10-03 22:29:55,-5.0892,-81.1144,70.36,77,30,20.4
609,Bijie,CN,2021-10-03 22:29:55,27.3125,105.2942,64.0,87,49,12.19
610,Zhigansk,RU,2021-10-03 22:29:56,66.7697,123.3711,25.41,86,98,6.17
611,Kendari,ID,2021-10-03 22:29:56,-3.945,122.4989,73.71,94,99,3.27
612,Andenes,NO,2021-10-03 22:29:06,69.3143,16.1194,53.58,66,20,13.8
613,Bataipora,BR,2021-10-03 22:26:47,-22.2953,-53.2711,73.67,87,81,9.69
614,Quelimane,MZ,2021-10-03 22:27:18,-17.8786,36.8883,78.75,78,0,11.5
615,Zhanaozen,KZ,2021-10-03 22:29:56,43.3,52.8,52.03,30,54,15.93
616,Kumluca,TR,2021-10-03 22:29:57,36.3703,30.2869,74.43,32,0,5.08
617,Sarkand,KZ,2021-10-03 22:29:57,45.41,79.9186,41.36,40,100,4.74
618,Lewistown,US,2021-10-03 22:29:57,40.5992,-77.5714,76.41,78,75,3.44
619,Roblin,CA,2021-10-03 22:29:58,51.23,-101.3565,74.68,16,12,11.54
620,Namtsy,RU,2021-10-03 22:29:58,62.7161,129.6658,24.91,90,9,5.95
621,Najran,SA,2021-10-03 22:29:58,17.4924,44.1277,81.25,42,58,1.39
622,Batuan,PH,2021-10-03 22:29:59,9.7808,124.1484,73.49,97,100,3.02
623,Kattivakkam,IN,2021-10-03 22:29:59,13.2167,80.3167,80.69,80,13,5.35
624,Dalmatovo,RU,2021-10-03 22:29:59,56.26,62.9362,29.5,81,97,7.72
625,Irece,BR,2021-10-03 22:30:00,-11.3042,-41.8558,80.71,34,4,14.54
626,Banda Aceh,ID,2021-10-03 22:25:04,5.5577,95.3222,78.4,82,50,10.51
627,Moose Factory,CA,2021-10-03 22:29:54,51.2585,-80.6094,57.2,67,1,9.22
628,Nanchang,CN,2021-10-03 22:30:00,28.6833,115.8833,76.41,63,0,3.15
629,Mahibadhoo,MV,2021-10-03 22:30:01,3.7833,72.9667,82.18,78,10,17.34
630,Bogorodskoye,RU,2021-10-03 22:30:01,56.55,37.8833,38.16,91,74,4.36
631,Moba,CN,2021-10-03 22:30:03,33.2288,105.0179,46.35,88,100,7.63
632,Flagstaff,US,2021-10-03 22:25:16,35.1981,-111.6513,73.89,34,20,4.0
633,Keroka,KE,2021-10-03 22:30:04,-0.7758,34.9453,55.72,93,100,1.79
634,Namibe,AO,2021-10-03 22:30:05,-15.1961,12.1522,60.22,88,33,5.53
635,Lensk,RU,2021-10-03 22:30:05,60.7253,114.9278,29.91,98,100,4.41
636,Tuy Hoa,VN,2021-10-03 22:30:06,13.0833,109.3,76.12,92,100,4.9
637,Bolu,TR,2021-10-03 22:30:06,40.6667,31.5833,47.44,88,65,3.4
638,Ereymentau,KZ,2021-10-03 22:30:07,51.6199,73.1033,32.97,96,100,11.65
639,Gudari,IN,2021-10-03 22:30:07,19.35,83.7833,75.45,97,74,1.92
640,Camopi,GF,2021-10-03 22:30:07,3.1655,-52.3158,78.6,68,89,6.22
641,Korla,CN,2021-10-03 22:27:30,41.7597,86.1469,47.39,29,40,3.24
642,Sturgeon Bay,US,2021-10-03 22:26:14,44.8342,-87.377,65.21,100,90,5.75
643,Pitimbu,BR,2021-10-03 22:30:08,-7.4706,-34.8086,77.59,82,10,13.56
644,Port Hedland,AU,2021-10-03 22:30:09,-20.3167,118.5667,57.25,72,3,4.61
645,Gumdag,TM,2021-10-03 22:30:09,39.2061,54.5906,59.45,16,2,25.55
646,Katherine,AU,2021-10-03 22:30:10,-14.4667,132.2667,82.72,74,32,9.22
647,Pithiviers,FR,2021-10-03 22:30:10,48.1667,2.25,53.19,71,100,7.16
648,Nangong,CN,2021-10-03 22:30:11,37.3581,115.3744,59.88,78,100,15.39
649,Leca Da Palmeira,PT,2021-10-03 22:30:11,41.191,-8.7003,59.11,83,0,0.0
650,Cockburn Town,TC,2021-10-03 22:26:28,21.4612,-71.1419,80.56,74,75,6.91
651,Barwadih,IN,2021-10-03 22:30:12,23.8333,84.1167,72.66,92,69,3.76
652,Baiquan,CN,2021-10-03 22:30:12,47.5833,126.0833,39.6,79,11,5.99
653,Aizawl,IN,2021-10-03 22:30:12,23.7333,92.7167,62.38,99,100,2.62
654,Quirinopolis,BR,2021-10-03 22:28:08,-18.4483,-50.4517,87.37,38,87,5.55
655,Srednekolymsk,RU,2021-10-03 22:30:13,67.45,153.6833,24.42,88,98,3.98
656,Yerofey Pavlovich,RU,2021-10-03 22:30:13,53.9667,121.9667,30.63,68,38,2.95
657,Cabo Rojo,PR,2021-10-03 22:30:14,18.0866,-67.1457,84.97,73,90,11.39
658,Nacogdoches,US,2021-10-03 22:30:14,31.6002,-94.6335,89.24,41,1,11.5
659,Kon Tum,VN,2021-10-03 22:30:14,14.35,108.0,66.58,96,91,2.26
660,Awjilah,LY,2021-10-03 22:29:08,29.1081,21.2869,73.2,44,0,5.97
661,Washougal,US,2021-10-03 22:27:02,45.5826,-122.3534,76.77,64,1,4.61
662,Opuwo,NA,2021-10-03 22:30:15,-18.0607,13.84,64.44,35,0,5.7
663,Nome,US,2021-10-03 22:29:35,64.5011,-165.4064,37.17,55,20,5.75
664,Kupang,ID,2021-10-03 22:30:15,-10.1667,123.5833,79.29,74,48,4.9
665,Thunder Bay,CA,2021-10-03 22:30:15,48.4001,-89.3168,61.29,86,90,0.0
666,Sainte-Marie,RE,2021-10-03 22:30:16,-20.8968,55.5496,73.56,84,90,10.36
667,Vestmanna,FO,2021-10-03 22:30:16,62.1564,-7.1664,47.32,100,75,27.63
668,Vila,PT,2021-10-03 22:30:16,42.0304,-8.1588,51.93,90,71,2.37
669,Gamba,GA,2021-10-03 22:30:17,-2.65,10.0,75.78,84,100,6.76
670,Alta Floresta,BR,2021-10-03 22:30:17,-9.8756,-56.0861,76.37,75,98,4.7
671,Morgan City,US,2021-10-03 22:30:17,29.6994,-91.2068,84.06,83,90,5.75
672,Mayo,US,2021-10-03 22:29:59,38.8876,-76.5119,81.25,84,1,4.0
673,Shimoda,JP,2021-10-03 22:30:18,34.6667,138.95,75.11,75,7,2.91
674,Mattru,SL,2021-10-03 22:30:18,7.6244,-11.8332,73.99,96,81,2.17
675,Tamiahua,MX,2021-10-03 22:30:18,21.2667,-97.45,82.8,72,69,8.66
676,Vancouver,CA,2021-10-03 22:28:14,49.2497,-123.1193,63.99,72,20,5.01
677,Harper,LR,2021-10-03 22:30:19,4.375,-7.7169,77.94,89,87,6.98
678,Vestmannaeyjar,IS,2021-10-03 22:30:12,63.4427,-20.2734,46.65,78,81,12.66
679,Port-Cartier,CA,2021-10-03 22:27:12,50.0334,-66.8654,48.74,75,99,0.65
680,Doha,QA,2021-10-03 22:28:30,25.2867,51.5333,89.58,82,96,4.61
681,Okhotsk,RU,2021-10-03 22:30:19,59.3833,143.3,35.06,66,5,23.29
682,Progreso,MX,2021-10-03 22:30:20,21.2833,-89.6667,88.11,75,48,14.5
683,Fukue,JP,2021-10-03 22:28:27,32.6881,128.8419,76.87,69,3,17.09
684,Belyy Yar,RU,2021-10-03 22:30:20,53.6039,91.3903,24.69,93,0,2.24
685,Bani,DO,2021-10-03 22:30:20,18.2833,-70.3333,76.44,75,100,8.46
686,Livingstone,ZM,2021-10-03 22:30:21,-17.8419,25.8543,71.6,54,40,3.47
687,Pyaozerskiy,RU,2021-10-03 22:30:21,65.8333,31.1667,45.01,85,91,11.32
688,Murrieta,US,2021-10-03 22:29:16,33.5539,-117.2139,99.66,16,1,1.01
689,Northam,GB,2021-10-03 22:27:30,51.0333,-4.2167,55.09,92,19,13.62
690,Whitehorse,CA,2021-10-03 22:26:56,60.7161,-135.0538,40.1,80,90,4.0
691,Chernyshevskiy,RU,2021-10-03 22:30:22,63.0128,112.4714,30.4,98,100,5.64
692,Antofagasta,CL,2021-10-03 22:26:03,-23.65,-70.4,58.28,75,24,9.22
693,Axim,GH,2021-10-03 22:30:22,4.8699,-2.2405,77.45,90,97,7.0
694,Krasnoselskiy,RU,2021-10-03 22:30:22,45.3935,40.5985,50.32,56,100,17.22
695,Paldiski,EE,2021-10-03 22:30:23,59.3567,24.0531,51.91,72,100,18.77
696,Macusani,PE,2021-10-03 22:30:23,-14.0833,-70.4333,42.24,73,59,5.77
697,La Reforma,MX,2021-10-03 22:30:23,25.0833,-108.05,96.75,45,99,10.74
698,Fujin,CN,2021-10-03 22:30:24,47.26,132.0322,42.71,80,100,4.0
699,Lac Du Bonnet,CA,2021-10-03 22:30:24,50.2536,-96.0612,68.81,37,44,4.7
700,Nsawam,GH,2021-10-03 22:30:24,5.8089,-0.3503,80.65,93,71,4.12
701,Hibbing,US,2021-10-03 22:30:25,47.4272,-92.9377,65.71,63,20,4.61
702,Zeya,RU,2021-10-03 22:30:25,53.75,127.2667,33.76,65,0,4.5
703,Kimbe,PG,2021-10-03 22:28:57,-5.5502,150.1429,82.42,73,81,2.33
704,Roanoke Rapids,US,2021-10-03 22:28:02,36.4615,-77.6542,79.21,78,1,0.0
705,Biak,ID,2021-10-03 22:30:25,-0.9131,122.8766,76.3,78,97,6.51
706,Jizan,SA,2021-10-03 22:30:26,17.3333,42.6667,85.14,68,91,7.49
707,Hambantota,LK,2021-10-03 22:30:26,6.1241,81.1185,79.07,83,95,12.93
708,Candolim,IN,2021-10-03 22:25:32,15.5181,73.7626,80.13,88,26,5.93
709,Ibra,OM,2021-10-03 22:29:17,22.6906,58.5334,76.96,80,100,12.8
710,Sakhon Nakhon,TH,2021-10-03 22:30:27,17.1612,104.1472,71.22,92,21,3.6
711,Celinac,BA,2021-10-03 22:30:27,44.7228,17.3278,50.67,67,0,5.5
712,Zhuhai,CN,2021-10-03 22:30:27,22.2769,113.5678,84.06,79,20,10.36
